City_ID,City,Lat,Lng,Max Temp,Humidity,Cloudiness,Wind Speed,Country,Date
0,bosobolo,4.1833,19.9,21.65,93,96,0.11,CD,2024-08-08 18:44:59
1,chonchi,-42.6128,-73.8092,7.29,94,100,1.05,CL,2024-08-08 18:44:59
2,port-aux-francais,-49.35,70.2167,2.39,71,60,7.68,TF,2024-08-08 18:44:59
3,fort mcmurray,56.7268,-111.381,25.77,27,0,3.09,CA,2024-08-08 18:42:34
4,olonkinbyen,70.9221,-8.7187,5.02,99,100,3.59,SJ,2024-08-08 18:44:59
5,bethel,41.3712,-73.414,19.64,89,100,3.6,US,2024-08-08 18:45:00
6,zouerate,22.7187,-12.4521,33.07,22,43,7.61,MR,2024-08-08 18:45:00
7,adamstown,-25.066,-130.1015,22.22,82,96,13.47,PN,2024-08-08 18:45:00
8,rufino,-34.2683,-62.7126,2.73,64,0,3.78,AR,2024-08-08 18:45:00
9,avarua,-21.2078,-159.775,23.03,46,20,3.6,CK,2024-08-08 18:45:01
10,vilyuysk,63.7553,121.6247,23.53,40,2,1.4,RU,2024-08-08 18:45:01
11,puerto natales,-51.7236,-72.4875,6.19,83,99,6.41,CL,2024-08-08 18:45:01
12,san antonio de pale,-1.4014,5.6325,22.87,84,100,3.98,GQ,2024-08-08 18:45:01
13,namibe,-15.1961,12.1522,15.99,89,3,2.6,AO,2024-08-08 18:45:02
14,hamilton,39.1834,-84.5333,26.67,75,100,1.34,US,2024-08-08 18:40:04
15,ilulissat,69.2167,-51.1,6.01,93,100,0.0,GL,2024-08-08 18:45:02
16,grytviken,-54.2811,-36.5092,-15.39,76,15,6.24,GS,2024-08-08 18:45:02
17,verkhovazh'ye,60.7472,42.0465,12.98,99,100,1.86,RU,2024-08-08 18:45:03
18,vrangel',42.7297,133.0839,24.38,80,100,3.55,RU,2024-08-08 18:45:03
19,kodiak,57.79,-152.4072,12.73,82,100,2.57,US,2024-08-08 18:45:03
20,arno,60.1167,18.6333,15.99,92,67,3.28,SE,2024-08-08 18:45:04
21,ribeira grande,38.5167,-28.7,22.1,86,1,2.24,PT,2024-08-08 18:45:04
22,maroua,10.591,14.3159,23.94,82,100,3.46,CM,2024-08-08 18:45:04
23,thompson,55.7435,-97.8558,18.09,52,75,3.09,CA,2024-08-08 18:45:04
24,hermanus,-34.4187,19.2345,12.67,76,23,13.25,ZA,2024-08-08 18:45:05
25,hasaki,35.7333,140.8333,32.94,79,4,6.79,JP,2024-08-08 18:45:05
26,st. john's,47.5649,-52.7093,17.66,78,75,5.66,CA,2024-08-08 18:45:05
27,hawaiian paradise park,19.5933,-154.9731,28.26,70,20,3.6,US,2024-08-08 18:45:05
28,port mathurin,-19.6833,63.4167,22.36,74,52,9.58,MU,2024-08-08 18:45:06
29,west island,-12.1568,96.8225,27.99,74,20,8.75,CC,2024-08-08 18:45:06
30,sun city center,27.7181,-82.3518,30.47,85,9,0.45,US,2024-08-08 18:45:06
31,sibolga,1.7427,98.7792,27.67,81,97,0.16,ID,2024-08-08 18:45:06
32,isafjordur,66.0755,-23.124,5.56,93,100,2.84,IS,2024-08-08 18:45:07
33,iqaluit,63.7506,-68.5145,10.85,81,100,3.09,CA,2024-08-08 18:45:07
34,kingston,17.997,-76.7936,29.53,70,20,4.63,JM,2024-08-08 18:45:07
35,klyuchi,52.2667,79.1667,19.15,83,100,2.16,RU,2024-08-08 18:45:07
36,markovo,57.3206,107.0881,21.78,56,91,2.18,RU,2024-08-08 18:45:08
37,jamestown,42.097,-79.2353,23.17,94,100,4.63,US,2024-08-08 18:45:08
38,newman,37.3138,-121.0208,35.99,11,0,2.55,US,2024-08-08 18:45:08
39,punta del este,-34.9667,-54.95,7.71,86,75,4.92,UY,2024-08-08 18:45:09
40,mirpur bhtoro,24.7286,68.2603,28.39,83,100,5.59,PK,2024-08-08 18:45:09
41,alice springs,-23.7,133.8833,22.75,28,0,4.63,AU,2024-08-08 18:45:09
42,pembroke,45.8168,-77.1162,20.99,99,100,3.0,CA,2024-08-08 18:45:10
43,ksar chellala,35.2122,2.3189,27.73,39,5,2.0,DZ,2024-08-08 18:45:10
44,tolanaro,-25.0319,46.9987,20.04,83,20,9.77,MG,2024-08-08 18:45:10
45,llanelli,51.682,-4.1619,16.94,97,100,12.35,GB,2024-08-08 18:45:10
46,punta arenas,-53.15,-70.9167,4.06,93,100,2.57,CL,2024-08-08 18:45:10
47,susuman,62.7833,148.1667,16.49,46,0,0.58,RU,2024-08-08 18:45:11
48,bredasdorp,-34.5322,20.0403,10.58,81,60,10.73,ZA,2024-08-08 18:41:38
49,fale old settlement,-9.3852,-171.2468,28.14,75,99,7.47,TK,2024-08-08 18:45:11
50,edinburgh of the seven seas,-37.0676,-12.3116,14.45,90,100,17.28,SH,2024-08-08 18:45:11
51,saint-pierre,-21.3393,55.4781,20.82,73,0,6.69,RE,2024-08-08 18:45:12
52,fauske,67.2588,15.3918,15.02,97,100,2.8,NO,2024-08-08 18:45:12
53,martinopolis,-22.1458,-51.1708,18.62,87,100,5.67,BR,2024-08-08 18:45:12
54,petropavlovsk-kamchatsky,53.0452,158.6483,14.33,100,100,3.0,RU,2024-08-08 18:45:12
55,invercargill,-46.4,168.35,8.34,79,1,3.58,NZ,2024-08-08 18:45:13
56,sarykemer,43.0,71.5,27.71,19,4,3.85,KZ,2024-08-08 18:45:13
57,margaret river,-33.95,115.0667,17.28,73,61,5.92,AU,2024-08-08 18:45:13
58,wynyard,-41.0,145.7167,12.66,64,64,3.7,AU,2024-08-08 18:45:13
59,yuzhno-kurilsk,44.0306,145.8556,22.41,83,100,2.98,RU,2024-08-08 18:45:14
60,blackmans bay,-43.0167,147.3167,13.74,56,94,0.45,AU,2024-08-08 18:45:14
61,waitangi,-43.9535,-176.5597,12.68,81,100,4.02,NZ,2024-08-08 18:45:14
62,kerikeri,-35.2268,173.9474,16.06,86,87,1.34,NZ,2024-08-08 18:45:14
63,curuca,-0.7289,-47.8481,24.21,89,1,1.68,BR,2024-08-08 18:45:15
64,ghadamis,30.1337,9.5007,27.22,36,0,4.11,LY,2024-08-08 18:45:15
65,pudasjarvi,65.3833,26.9167,11.59,81,34,2.6,FI,2024-08-08 18:45:15
66,yuanping,38.7153,112.7575,19.98,97,100,1.4,CN,2024-08-08 18:45:15
67,utrik,11.2278,169.8474,28.31,79,88,7.61,MH,2024-08-08 18:45:16
68,prince rupert,54.3161,-130.3201,17.05,84,0,6.17,CA,2024-08-08 18:45:13
69,udachny,66.4167,112.4,11.02,79,99,4.95,RU,2024-08-08 18:45:16
70,kapuskasing,49.4169,-82.4331,16.05,100,75,2.06,CA,2024-08-08 18:45:16
71,georgetown,5.4112,100.3354,30.96,74,20,2.06,MY,2024-08-08 18:45:17
72,port elizabeth,-33.918,25.5701,16.17,55,0,1.34,ZA,2024-08-08 18:45:17
73,tsiombe,-25.3,45.4833,18.08,74,0,2.27,MG,2024-08-08 18:45:17
74,lebu,-37.6167,-73.65,7.19,84,91,4.33,CL,2024-08-08 18:45:18
75,telavi,41.9198,45.4731,18.17,91,100,1.49,GE,2024-08-08 18:45:18
76,napajedla,49.1716,17.5119,16.5,94,30,1.13,CZ,2024-08-08 18:45:18
77,ulety,51.3572,112.4849,22.91,46,89,0.56,RU,2024-08-08 18:45:19
78,port macquarie,-31.4333,152.9167,20.5,60,100,0.89,AU,2024-08-08 18:45:19
79,rovaniemi,66.5,25.7167,12.67,82,0,4.63,FI,2024-08-08 18:45:19
80,puerto ayora,-0.7393,-90.3518,19.75,90,49,3.13,EC,2024-08-08 18:45:20
81,ambon,-3.6954,128.1814,28.26,95,40,4.12,ID,2024-08-08 18:45:20
82,sechura,-5.5569,-80.8222,17.94,77,6,7.32,PE,2024-08-08 18:45:20
83,maues,-3.3836,-57.7186,25.55,47,5,0.43,BR,2024-08-08 18:45:20
84,albany,42.6001,-73.9662,19.1,83,100,2.49,US,2024-08-08 18:45:21
85,tavda,58.0425,65.2726,10.34,75,20,2.35,RU,2024-08-08 18:45:21
86,cadale,2.7603,46.3222,24.52,84,62,7.24,SO,2024-08-08 18:45:21
87,uturoa,-16.7333,-151.4333,25.44,84,15,6.02,PF,2024-08-08 18:45:21
88,kirakira,-10.4544,161.9205,27.29,84,70,5.17,SB,2024-08-08 18:45:22
89,cidreira,-30.1811,-50.2056,11.7,93,89,3.94,BR,2024-08-08 18:45:22
90,lerwick,60.1545,-1.1494,13.0,94,100,7.07,GB,2024-08-08 18:45:22
91,tazovsky,67.4667,78.7,8.23,73,12,6.37,RU,2024-08-08 18:45:22
92,dhuusamarreeb,5.535,46.3861,23.66,66,99,9.21,SO,2024-08-08 18:45:23
93,kaspiyskiy,45.3929,47.3707,25.53,36,2,4.43,RU,2024-08-08 18:45:23
94,zalesovo,53.9939,84.7431,18.27,92,90,1.26,RU,2024-08-08 18:45:23
95,bontang,0.1333,117.5,26.75,85,29,2.91,ID,2024-08-08 18:45:23
96,aldinga beach,-35.2793,138.4604,15.62,79,99,2.17,AU,2024-08-08 18:45:24
97,ta`u,-14.2336,-169.5144,25.34,74,100,10.38,AS,2024-08-08 18:45:24
98,iskateley,67.6803,53.1512,8.66,72,17,1.92,RU,2024-08-08 18:45:24
99,tiksi,71.6872,128.8694,5.19,91,100,5.78,RU,2024-08-08 18:45:24
100,jiamusi,46.8333,130.35,26.15,62,35,3.78,CN,2024-08-08 18:45:25
101,east london,-33.0153,27.9116,16.11,63,0,2.46,ZA,2024-08-08 18:45:25
102,port lincoln,-34.7333,135.8667,15.13,64,91,3.05,AU,2024-08-08 18:43:32
103,longyearbyen,78.2186,15.6401,10.91,87,0,3.09,SJ,2024-08-08 18:45:25
104,kapa'a,22.0752,-159.319,29.18,64,0,5.66,US,2024-08-08 18:45:26
105,gadzhiyevo,69.2551,33.3362,11.58,62,9,5.03,RU,2024-08-08 18:45:26
106,vorgashor,67.5833,63.95,10.26,68,7,1.85,RU,2024-08-08 18:45:26
107,oranjemund,-28.55,16.4333,14.12,70,28,8.72,NA,2024-08-08 18:45:27
108,letlhakane,-21.4167,25.5833,16.46,31,0,3.79,BW,2024-08-08 18:45:27
109,vila franca do campo,37.7167,-25.4333,22.23,99,0,2.03,PT,2024-08-08 18:45:27
110,chernomorskoye,45.5039,32.6997,24.34,73,0,2.4,UA,2024-08-08 18:45:27
111,urambo,-5.0667,32.05,18.37,51,9,2.09,TZ,2024-08-08 18:45:28
112,opuwo,-18.0607,13.84,16.3,32,1,1.19,NA,2024-08-08 18:45:28
113,belyy yar,53.6039,91.3903,19.94,83,0,1.0,RU,2024-08-08 18:45:28
114,as sulayyil,20.4607,45.5779,34.14,12,100,2.13,SA,2024-08-08 18:45:28
115,lethem,3.3803,-59.7968,24.34,88,57,3.29,GY,2024-08-08 18:45:29
116,n'zeto,-7.2312,12.8666,20.61,88,100,3.52,AO,2024-08-08 18:45:29
117,selkirk,50.1436,-96.8845,17.04,66,28,1.79,CA,2024-08-08 18:45:29
118,powell,40.1578,-83.0752,25.19,86,0,2.57,US,2024-08-08 18:45:29
119,argo,37.6333,22.7333,25.44,58,0,1.82,GR,2024-08-08 18:45:30
120,kerouane,9.2667,-9.0167,20.89,98,100,1.59,GN,2024-08-08 18:45:30
121,jamaame,0.0697,42.745,22.89,82,96,3.09,SO,2024-08-08 18:45:30
122,praia da vitoria,38.7333,-27.0667,23.14,88,0,0.78,PT,2024-08-08 18:45:30
123,bilibino,68.0546,166.4372,14.58,40,18,1.12,RU,2024-08-08 18:45:31
124,ulladulla,-35.35,150.4667,18.2,44,49,2.93,AU,2024-08-08 18:45:31
125,minas de marcona,-15.2119,-75.1103,9.95,91,74,6.07,PE,2024-08-08 18:45:31
126,north tamworth,-31.0778,150.9261,17.06,55,49,1.03,AU,2024-08-08 18:45:31
127,acapulco de juarez,16.8634,-99.8901,25.9,83,100,3.6,MX,2024-08-08 18:44:03
128,richards bay,-28.783,32.0377,23.59,29,0,5.36,ZA,2024-08-08 18:45:32
129,box elder,41.5005,-112.8764,26.88,32,72,2.62,US,2024-08-08 18:45:32
130,ushuaia,-54.8,-68.3,5.81,81,100,10.8,AR,2024-08-08 18:45:32
131,rosarito,32.3333,-117.0333,26.13,79,21,2.8,MX,2024-08-08 18:45:33
132,stanley,54.868,-1.6985,16.82,91,40,5.66,GB,2024-08-08 18:45:33
133,touros,-5.1989,-35.4608,23.35,88,8,5.16,BR,2024-08-08 18:45:33
134,dudinka,69.4058,86.1778,11.26,58,18,8.31,RU,2024-08-08 18:45:33
135,christchurch,-43.5333,172.6333,9.39,92,100,5.14,NZ,2024-08-08 18:45:34
136,celestun,20.8667,-90.4,27.53,78,100,4.06,MX,2024-08-08 18:45:34
137,kiunga,-6.1219,141.2906,24.73,88,94,2.17,PG,2024-08-08 18:45:34
138,yellowknife,62.456,-114.3525,24.12,49,20,5.14,CA,2024-08-08 18:45:34
139,kruisfontein,-34.0033,24.7314,14.94,44,0,8.43,ZA,2024-08-08 18:45:35
140,arteche,12.2645,125.4048,31.75,62,96,1.93,PH,2024-08-08 18:45:35
141,san patricio,28.017,-97.5169,31.05,65,0,4.48,US,2024-08-08 18:43:08
142,berlin,52.5244,13.4105,17.82,87,0,2.24,DE,2024-08-08 18:39:40
143,bahir dar,11.5936,37.3908,15.95,95,93,1.35,ET,2024-08-08 18:45:36
144,papatowai,-46.5619,169.4708,10.12,62,1,3.66,NZ,2024-08-08 18:45:36
145,khawr fakkan,25.3313,56.342,30.03,81,100,4.26,AE,2024-08-08 18:45:36
146,coquimbo,-29.9533,-71.3436,12.21,63,0,4.63,CL,2024-08-08 18:45:36
147,magadan,59.5667,150.8,14.46,85,62,2.58,RU,2024-08-08 18:45:37
148,hirara,24.8,125.2833,30.15,84,40,2.06,JP,2024-08-08 18:45:37
149,nizhnesortymskiy,62.4397,71.7603,11.14,70,100,4.65,RU,2024-08-08 18:45:37
150,rongelap,11.1635,166.8941,28.53,77,75,6.87,MH,2024-08-08 18:45:37
151,baghdad,33.3406,44.4009,30.95,29,0,3.6,IQ,2024-08-08 18:45:38
152,coyhaique,-45.5752,-72.0662,6.34,99,100,2.91,CL,2024-08-08 18:45:38
153,lompoc,34.6391,-120.4579,18.8,83,0,5.66,US,2024-08-08 18:45:38
154,ust-nera,64.5667,143.2,17.74,59,61,3.03,RU,2024-08-08 18:45:38
155,arraial do cabo,-22.9661,-42.0278,22.77,82,0,6.64,BR,2024-08-08 18:45:39
156,zaozersk,69.4005,32.4476,12.03,58,12,3.27,RU,2024-08-08 18:45:39
157,pitogo,13.7847,122.0881,30.31,68,47,2.84,PH,2024-08-08 18:45:39
158,papao,-17.75,-149.55,26.82,90,61,6.59,PF,2024-08-08 18:45:39
159,astrakhan,46.3497,48.0408,21.93,60,0,3.0,RU,2024-08-08 18:41:36
160,victorica,-36.2151,-65.4359,3.29,53,0,0.75,AR,2024-08-08 18:45:40
161,aqaba,29.5267,35.0078,30.92,33,0,5.66,JO,2024-08-08 18:45:40
162,banjarmasin,-3.3244,114.591,27.08,70,52,1.29,ID,2024-08-08 18:37:35
163,new norfolk,-42.7826,147.0587,14.95,56,100,2.2,AU,2024-08-08 18:45:40
164,qaqortoq,60.7167,-46.0333,5.96,95,100,1.12,GL,2024-08-08 18:45:41
165,taltal,-25.4,-70.4833,14.34,68,1,1.9,CL,2024-08-08 18:45:41
166,bauchi,10.5,10.0,21.8,95,100,1.42,NG,2024-08-08 18:45:41
167,morehead city,34.7229,-76.726,29.0,87,75,9.77,US,2024-08-08 18:45:41
168,nuuk,64.1835,-51.7216,3.34,100,100,2.57,GL,2024-08-08 18:45:42
169,olyokminsk,60.3736,120.4264,26.93,42,0,1.04,RU,2024-08-08 18:45:42
170,port saint john's,-31.6229,29.5448,17.4,61,0,2.17,ZA,2024-08-08 18:45:42
171,malango,-2.9627,119.9001,24.79,70,31,1.96,ID,2024-08-08 18:45:42
172,colonia,50.9333,6.95,21.05,69,0,3.6,DE,2024-08-08 18:45:43
173,gobabis,-22.45,18.9667,12.92,30,0,3.87,NA,2024-08-08 18:45:43
174,walvis bay,-22.9575,14.5053,11.52,65,0,4.1,NA,2024-08-08 18:45:43
175,saint-joseph,-21.3667,55.6167,20.21,75,25,4.64,RE,2024-08-08 18:45:43
176,bel ombre,-4.6167,55.4167,25.91,83,20,7.72,SC,2024-08-08 18:45:44
177,berezovyy,51.6667,135.7,16.88,82,100,1.45,RU,2024-08-08 18:45:44
178,springs,-26.25,28.4,13.57,41,0,4.5,ZA,2024-08-08 18:45:44
179,talnakh,69.4865,88.3972,13.79,54,10,1.61,RU,2024-08-08 18:45:44
180,porto novo,6.4965,2.6036,23.06,86,100,2.9,BJ,2024-08-08 18:45:45
181,sant feliu de guixols,41.7833,3.0333,24.94,37,0,1.0,ES,2024-08-08 18:45:45
182,chardara,41.2547,67.9692,28.62,25,2,3.13,KZ,2024-08-08 18:45:45
183,bikenibeu village,1.3673,173.1241,31.98,62,40,3.09,KI,2024-08-08 18:45:45
184,myrina,39.8797,25.0742,23.58,69,0,0.0,GR,2024-08-08 18:45:46
185,polyarnyy,69.1989,33.4478,11.48,62,8,5.42,RU,2024-08-08 18:45:46
186,afaahiti,-17.75,-149.2833,25.93,89,58,7.21,PF,2024-08-08 18:45:46
187,tympaki,35.0729,24.7685,25.98,47,0,3.26,GR,2024-08-08 18:45:46
188,laguna,38.421,-121.4238,36.97,29,0,4.12,US,2024-08-08 18:45:47
189,anadyr,64.75,177.4833,9.28,70,75,3.0,RU,2024-08-08 18:45:47
190,port douglas,-16.4833,145.4667,22.89,74,28,6.28,AU,2024-08-08 18:45:47
191,male,4.1748,73.5089,27.97,83,75,2.57,MV,2024-08-08 18:45:35
192,lazaro cardenas,17.9583,-102.2,28.45,84,17,0.89,MX,2024-08-08 18:45:48
193,sao tome,0.3365,6.7273,23.69,83,84,3.54,ST,2024-08-08 18:45:48
194,melfort,52.8667,-104.6177,18.07,42,99,2.06,CA,2024-08-08 18:45:48
195,la cruz,23.9167,-106.9,28.53,83,17,3.26,MX,2024-08-08 18:45:49
196,atafu village,-8.5421,-172.5159,28.81,71,41,8.64,TK,2024-08-08 18:45:49
197,college,64.8569,-147.8028,18.99,76,100,4.63,US,2024-08-08 18:45:49
198,es castell,39.8795,4.2854,24.38,94,0,2.57,ES,2024-08-08 18:45:50
199,zhengjiatun,43.5064,123.5064,27.69,60,100,2.88,CN,2024-08-08 18:45:50
200,puerto lempira,15.2667,-83.7667,25.8,93,100,3.53,HN,2024-08-08 18:45:50
201,labytnangi,66.6572,66.4183,10.56,71,5,3.74,RU,2024-08-08 18:45:50
202,fedorovka,53.6314,62.7078,11.55,79,22,5.35,KZ,2024-08-08 18:45:51
203,wulingyuan,29.3494,110.5441,29.03,63,100,1.78,CN,2024-08-08 18:45:51
204,alofi,-19.0595,-169.9187,23.94,57,75,7.2,NU,2024-08-08 18:45:51
205,mantua,45.1667,10.7833,23.53,89,6,0.89,IT,2024-08-08 18:45:51
206,ban dan lan hoi,17.0068,99.575,27.81,74,12,2.75,TH,2024-08-08 18:45:52
207,virginia,37.5481,-77.4467,26.08,95,100,7.2,US,2024-08-08 18:45:52
208,mount pearl,47.5166,-52.7813,17.2,78,75,5.66,CA,2024-08-08 18:45:52
209,guerrero negro,27.9769,-114.0611,22.69,67,0,7.09,MX,2024-08-08 18:45:52
210,deggendorf,48.8333,12.9667,16.59,91,31,0.62,DE,2024-08-08 18:45:53
211,aswan,24.0934,32.907,32.61,48,0,2.57,EG,2024-08-08 18:45:53
212,guarapari,-20.6667,-40.4975,23.27,72,0,4.81,BR,2024-08-08 18:45:53
213,bagan,54.1001,77.6646,15.49,83,100,3.96,RU,2024-08-08 18:45:53
214,toliara,-23.35,43.6667,19.24,85,0,2.21,MG,2024-08-08 18:45:54
215,aasiaat,68.7098,-52.8699,2.94,93,82,2.49,GL,2024-08-08 18:45:54
216,pak phanang,8.3511,100.202,28.01,75,14,1.15,TH,2024-08-08 18:45:54
217,illizi,26.4833,8.4667,29.53,23,0,0.84,DZ,2024-08-08 18:45:54
218,tadmur,34.5608,38.2805,26.28,41,0,5.7,SY,2024-08-08 18:45:55
219,salinas,36.6777,-121.6555,23.37,76,0,5.14,US,2024-08-08 18:45:55
220,la'ie,21.6477,-157.9253,30.98,74,8,3.58,US,2024-08-08 18:45:55
221,moree,-29.4667,149.85,18.93,50,85,1.84,AU,2024-08-08 18:45:55
222,dadukou,26.5479,101.7054,27.6,65,71,0.86,CN,2024-08-08 18:45:56
223,meadow lakes,61.6247,-149.6011,14.42,95,100,1.99,US,2024-08-08 18:45:56
224,vilyuchinsk,52.9306,158.4028,15.15,99,100,1.15,RU,2024-08-08 18:45:56
225,ola,59.5833,151.2833,15.43,77,59,1.99,RU,2024-08-08 18:45:56
226,taoudenni,22.6783,-3.9836,38.49,22,100,3.3,ML,2024-08-08 18:45:57
227,constantia,44.1833,28.65,18.38,76,0,1.9,RO,2024-08-08 18:45:57
228,natal,-5.795,-35.2094,25.12,78,75,4.12,BR,2024-08-08 18:45:57
229,svyetlahorsk,52.6329,29.7389,14.08,81,23,0.91,BY,2024-08-08 18:45:57
230,paraisopolis,-22.5542,-45.78,19.46,56,10,0.68,BR,2024-08-08 18:45:58
231,san pedro buenavista,16.0833,-93.1167,21.08,94,97,1.93,MX,2024-08-08 18:45:58
232,jetalsar,21.7,70.5833,26.32,88,98,2.96,IN,2024-08-08 18:45:58
233,turkmenbasy,40.0222,52.9552,22.43,83,0,3.09,TM,2024-08-08 18:45:58
234,grand-bassam,5.2118,-3.7388,23.98,90,100,3.13,CI,2024-08-08 18:45:59
235,motygino,58.1831,94.7592,17.01,94,100,0.84,RU,2024-08-08 18:45:59
236,nuku'alofa,-21.1333,-175.2,25.19,61,75,5.66,TO,2024-08-08 18:45:59
237,tierra nueva,21.6833,-100.5667,20.09,77,26,3.5,MX,2024-08-08 18:45:59
238,flying fish cove,-10.4217,105.6791,26.82,78,75,7.2,CX,2024-08-08 18:46:00
239,yeniseysk,58.4497,92.1703,17.13,94,100,0.96,RU,2024-08-08 18:46:00
240,nanchong,30.7951,106.0847,29.4,79,100,3.07,CN,2024-08-08 18:46:00
241,daru,-9.0763,143.2092,25.25,87,100,6.87,PG,2024-08-08 18:46:00
242,san jose de jachal,-30.2406,-68.7469,3.69,53,0,1.31,AR,2024-08-08 18:46:01
243,waseca,44.0777,-93.5074,15.73,79,0,0.0,US,2024-08-08 18:46:01
244,saint-philippe,-21.3585,55.7679,20.77,76,47,4.5,RE,2024-08-08 18:46:01
245,kaa-khem,51.6833,94.7333,22.83,44,16,1.36,RU,2024-08-08 18:46:01
246,mollendo,-17.0231,-72.0147,14.2,87,50,3.58,PE,2024-08-08 18:46:02
247,hamar,60.7945,11.068,10.45,97,100,1.05,NO,2024-08-08 18:46:02
248,chukhloma,58.7525,42.6825,12.2,99,65,1.6,RU,2024-08-08 18:46:02
249,tralee,52.2704,-9.7026,13.79,93,75,4.27,IE,2024-08-08 18:46:02
250,guercif,34.2257,-3.3536,26.14,60,14,0.51,MA,2024-08-08 18:46:03
251,saipan,15.1355,145.701,32.39,66,40,3.09,MP,2024-08-08 18:46:03
252,chumphon,10.3333,98.8333,28.29,72,88,1.5,TH,2024-08-08 18:46:03
253,kiama,-34.6833,150.8667,20.32,59,100,0.89,AU,2024-08-08 18:46:03
254,el granada,37.5027,-122.4694,23.59,79,20,10.8,US,2024-08-08 18:46:04
255,khandyga,62.6667,135.6,21.27,50,15,0.92,RU,2024-08-08 18:46:04
256,atherton,53.5237,-2.4935,18.08,93,100,1.34,GB,2024-08-08 18:46:04
257,sikasso,10.9167,-7.0,22.26,92,100,0.28,ML,2024-08-08 18:46:04
258,kailua-kona,19.6406,-155.9956,29.6,74,40,4.63,US,2024-08-08 18:42:30
259,bubaque,11.2833,-15.8333,26.5,83,100,6.23,GW,2024-08-08 18:46:05
260,princeville,45.7668,-61.2985,15.98,87,0,0.0,CA,2024-08-08 18:46:05
261,severo-yeniseyskiy,60.3725,93.0408,18.34,63,40,0.54,RU,2024-08-08 18:46:05
262,upington,-28.4478,21.2561,8.21,36,0,3.6,ZA,2024-08-08 18:46:06
263,chengde,40.9725,117.9361,25.33,81,100,1.61,CN,2024-08-08 18:46:06
264,kwaksan,39.6875,125.0828,27.64,81,95,1.09,KP,2024-08-08 18:46:06
265,dubbo,-32.25,148.6167,17.07,63,100,5.14,AU,2024-08-08 18:46:06
266,kumeny,58.1089,49.9161,11.7,90,68,3.26,RU,2024-08-08 18:46:07
267,sisimiut,66.9395,-53.6735,4.74,93,93,1.64,GL,2024-08-08 18:46:07
268,tura,25.5198,90.2201,24.75,95,100,2.45,IN,2024-08-08 18:46:07
269,stung treng,13.5259,105.9683,29.49,76,71,1.84,KH,2024-08-08 18:46:07
270,tadine,-21.55,167.8833,23.11,62,8,5.81,NC,2024-08-08 18:46:08
271,tindouf,27.6711,-8.1474,35.25,23,20,2.57,DZ,2024-08-08 18:46:08
272,bathsheba,13.2167,-59.5167,29.34,74,75,6.17,BB,2024-08-08 18:46:08
273,zaragoza,41.6561,-0.8773,24.89,61,0,7.2,ES,2024-08-08 18:46:08
274,playa del ingles,27.7567,-15.5787,22.86,87,88,3.11,ES,2024-08-08 18:46:09
275,port hedland,-20.3167,118.5667,27.03,24,6,5.14,AU,2024-08-08 18:46:09
276,yauya,-8.9833,-77.3,10.8,73,78,2.25,PE,2024-08-08 18:46:09
277,igunga,-4.2833,33.8833,19.33,50,10,2.11,TZ,2024-08-08 18:46:09
278,prado,-17.3411,-39.2208,21.98,76,0,3.64,BR,2024-08-08 18:46:10
279,egilsstadir,65.2653,-14.3948,6.95,100,100,1.54,IS,2024-08-08 18:46:10
280,haiku-pauwela,20.9219,-156.3051,28.98,69,40,11.32,US,2024-08-08 18:46:10
281,mili,6.0815,171.735,28.05,70,18,3.05,MH,2024-08-08 18:46:11
282,kilju,40.9642,129.3278,32.23,45,7,1.62,KP,2024-08-08 18:46:11
283,sal rei,16.1833,-22.9167,25.28,77,81,2.54,CV,2024-08-08 18:46:11
284,east ballina,-28.8667,153.5833,20.44,66,4,2.56,AU,2024-08-08 18:46:11
285,willmar,45.1219,-95.0433,15.97,77,100,5.14,US,2024-08-08 18:46:11
286,selfoss,63.9331,-20.9971,10.58,90,100,1.54,IS,2024-08-08 18:46:12
287,whitehorse,60.7161,-135.0538,29.43,27,20,6.17,CA,2024-08-08 18:46:12
288,cabo san lucas,22.8909,-109.9124,33.61,62,0,8.75,MX,2024-08-08 18:40:01
289,nadym,65.5333,72.5167,10.31,68,100,4.78,RU,2024-08-08 18:46:12
290,andergrove,-21.0833,149.1833,25.83,79,21,7.41,AU,2024-08-08 18:46:13
291,sortavala,61.7053,30.6918,16.49,67,100,1.44,RU,2024-08-08 18:46:13
292,arafat,39.0344,44.6198,16.81,73,0,1.65,IR,2024-08-08 18:46:13
293,sinop,41.7711,34.8709,16.82,85,0,1.8,TR,2024-08-08 18:46:14
294,ansalta,42.6894,46.1178,15.06,89,0,1.3,RU,2024-08-08 18:46:14
295,yelizovo,53.1873,158.3805,15.08,100,100,3.0,RU,2024-08-08 18:46:14
296,santiago,-33.4569,-70.6483,8.81,67,0,3.09,CL,2024-08-08 18:40:37
297,belle fourche,44.6714,-103.8522,18.51,50,91,3.15,US,2024-08-08 18:46:15
298,port shepstone,-30.7414,30.455,20.11,71,0,6.32,ZA,2024-08-08 18:46:15
299,wailua homesteads,22.0669,-159.378,28.44,67,0,5.66,US,2024-08-08 18:46:15
300,bowen,-20.0167,148.2333,22.76,61,0,7.4,AU,2024-08-08 18:46:15
301,pursat,12.3333,103.6667,29.32,61,16,0.25,KH,2024-08-08 18:46:16
302,sainte-anne-des-monts,49.124,-66.4924,16.93,72,100,4.63,CA,2024-08-08 18:46:16
303,la passe,45.5549,-0.8967,16.34,84,8,3.35,FR,2024-08-08 18:46:16
304,villamontes,-21.25,-63.5,8.4,40,0,2.45,BO,2024-08-08 18:46:16
305,keflavik,64.0049,-22.5624,10.24,87,100,2.57,IS,2024-08-08 18:46:17
306,trenggalek,-8.05,111.7167,29.27,86,99,3.28,ID,2024-08-08 18:46:17
307,kaoma,-14.7833,24.8,13.48,37,4,2.62,ZM,2024-08-08 18:46:17
308,owase,34.0667,136.2,32.29,49,0,1.84,JP,2024-08-08 18:46:17
309,port blair,11.6667,92.75,28.64,76,58,4.08,IN,2024-08-08 18:46:18
310,bolobo,-2.1667,16.2333,22.54,63,61,1.84,CD,2024-08-08 18:46:18
311,pangody,65.85,74.4859,10.76,62,92,6.33,RU,2024-08-08 18:46:18
312,mandalgovi,45.7625,106.2708,13.56,87,100,9.22,MN,2024-08-08 18:46:19
313,trets,43.45,5.6833,23.46,48,17,1.37,FR,2024-08-08 18:46:19
314,galliano,29.4422,-90.2992,32.0,66,0,2.06,US,2024-08-08 18:46:19
315,lihue,21.9789,-159.3672,28.77,66,0,5.66,US,2024-08-08 18:46:19
316,shalkar,47.8288,59.6258,21.24,70,0,5.19,KZ,2024-08-08 18:46:20
317,krasnoshchekovo,51.6708,82.7289,20.24,81,100,2.04,RU,2024-08-08 18:46:20
318,victor rosales,22.95,-102.7,26.05,34,40,4.71,MX,2024-08-08 18:46:20
319,dwarka,22.2394,68.9678,28.05,83,100,7.54,IN,2024-08-08 18:46:20
320,afua,-0.1567,-50.3867,24.83,86,0,2.53,BR,2024-08-08 18:46:21
321,tual,-5.6667,132.75,25.16,82,78,9.34,ID,2024-08-08 18:46:21
322,markapur,15.7333,79.2833,27.6,71,100,2.33,IN,2024-08-08 18:46:21
323,isla mujeres,21.2311,-86.731,28.03,79,100,3.68,MX,2024-08-08 18:46:21
324,brookings,44.3114,-96.7984,16.0,73,100,4.63,US,2024-08-08 18:42:00
325,hammerfest,70.6634,23.6821,19.25,59,11,4.63,NO,2024-08-08 18:46:22
326,meihekou,42.5272,125.6753,25.44,78,100,1.64,CN,2024-08-08 18:46:22
327,singkil,-7.9855,111.4161,27.3,70,71,3.44,ID,2024-08-08 18:46:22
328,hastings,50.8552,0.5729,19.43,94,100,10.64,GB,2024-08-08 18:46:23
329,copala,16.65,-98.9833,27.33,86,100,1.99,MX,2024-08-08 18:46:23
330,mitu,1.1983,-70.1733,23.37,87,100,0.96,CO,2024-08-08 18:46:23
331,hluti,-27.2167,31.6167,17.18,34,0,1.97,SZ,2024-08-08 18:46:23
332,villa gesell,-37.2639,-56.973,8.74,83,87,10.39,AR,2024-08-08 18:46:24
333,lata,40.1629,-8.3327,13.95,94,8,0.29,PT,2024-08-08 18:46:24
334,guasdualito,7.2424,-70.7324,28.0,94,20,1.03,VE,2024-08-08 18:46:24
335,massawa,15.6097,39.45,32.03,61,32,1.99,ER,2024-08-08 18:46:24
336,phalodi,27.1333,72.3667,28.83,73,47,6.01,IN,2024-08-08 18:46:25
337,komlo,46.1928,18.2649,19.69,88,8,1.81,HU,2024-08-08 18:46:25
338,la ronge,55.1001,-105.2842,21.14,35,75,2.06,CA,2024-08-08 18:46:25
339,gbarnga,6.9956,-9.4722,20.6,98,100,1.21,LR,2024-08-08 18:46:25
340,esbjerg,55.4667,8.45,16.17,89,100,4.63,DK,2024-08-08 18:46:26
341,pisco,-13.7,-76.2167,16.03,82,0,5.66,PE,2024-08-08 18:46:26
342,las tablas,7.7667,-80.2833,25.1,99,100,0.71,PA,2024-08-08 18:46:26
343,chui,-33.6971,-53.4616,7.33,79,100,3.92,UY,2024-08-08 18:46:26
344,bereznik,62.8551,42.7072,11.66,84,70,1.34,RU,2024-08-08 18:46:27
345,portland,45.5234,-122.6762,34.8,38,20,3.6,US,2024-08-08 18:37:00
346,hilo,19.7297,-155.09,28.38,73,20,3.6,US,2024-08-08 18:46:27
347,vadso,70.0744,29.7487,13.49,81,0,2.06,NO,2024-08-08 18:46:27
348,montepuez,-13.1256,38.9997,17.06,96,71,2.19,MZ,2024-08-08 18:46:28
349,mariental,-24.6333,17.9667,9.49,18,4,4.3,NA,2024-08-08 18:46:28
350,sinabang,2.4803,96.3801,26.48,85,100,2.27,ID,2024-08-08 18:46:28
351,port-gentil,-0.7193,8.7815,23.71,83,96,3.98,GA,2024-08-08 18:46:28
352,san pedro,14.35,121.0167,31.31,78,75,4.63,PH,2024-08-08 18:46:29
353,sittwe,20.15,92.9,26.71,84,100,3.95,MM,2024-08-08 18:46:29
354,taro,-8.3862,115.28,23.0,72,63,1.84,ID,2024-08-08 18:46:29
355,bozdogan,37.6713,28.314,20.34,48,0,1.27,TR,2024-08-08 18:46:29
356,taybad,34.74,60.7756,27.19,45,0,9.2,IR,2024-08-08 18:46:30
357,al jawf,29.5,38.75,25.27,32,0,3.81,SA,2024-08-08 18:46:30
358,sitka,57.0531,-135.33,18.94,72,20,2.06,US,2024-08-08 18:46:30
359,badger,64.8,-147.5333,18.95,76,75,4.63,US,2024-08-08 18:46:30
360,winona,43.9666,-91.7668,16.88,55,40,4.12,US,2024-08-08 18:46:31
361,el alto,-4.2714,-81.2147,16.81,86,22,6.79,PE,2024-08-08 18:46:31
362,salalah,17.0151,54.0924,24.05,100,100,4.63,OM,2024-08-08 18:46:31
363,madera,37.1666,-119.8343,38.64,11,0,4.94,US,2024-08-08 18:45:09
364,ghat,24.9647,10.1728,30.59,14,24,1.35,LY,2024-08-08 18:46:31
365,saudarkrokur,65.7461,-19.6394,6.33,95,100,0.87,IS,2024-08-08 18:46:32
366,as saffaniyah,27.9708,48.73,34.77,27,3,5.37,SA,2024-08-08 18:46:32
367,malaya vishera,58.8454,32.2222,14.86,83,99,1.1,RU,2024-08-08 18:46:32
368,ski,59.7195,10.8358,13.51,88,100,3.55,NO,2024-08-08 18:46:32
369,klaksvik,62.2266,-6.589,10.51,93,100,4.92,FO,2024-08-08 18:46:33
370,mankono,8.0586,-6.1897,21.71,93,100,3.12,CI,2024-08-08 18:46:33
371,ebon,4.582,168.6964,28.55,73,18,3.6,MH,2024-08-08 18:46:33
372,datong,40.0936,113.2914,18.93,94,100,5.68,CN,2024-08-08 18:46:33
373,saint-paul,-21.0096,55.2707,21.06,84,37,0.5,RE,2024-08-08 18:46:34
374,madinat ash shamal,26.1293,51.2009,31.97,74,1,3.11,QA,2024-08-08 18:46:34
375,cestos city,5.46,-9.5828,24.04,80,100,4.16,LR,2024-08-08 18:46:34
376,immokalee,26.4187,-81.4173,29.97,94,0,2.57,US,2024-08-08 18:46:35
377,port isabel,26.0734,-97.2086,31.04,74,20,6.69,US,2024-08-08 18:42:59
378,tromso,69.6496,18.957,17.01,67,82,0.0,NO,2024-08-08 18:46:35
379,paita,-5.0892,-81.1144,17.68,83,3,6.71,PE,2024-08-08 18:46:36
380,zheleznogorsk-ilimskiy,56.5768,104.1217,19.19,69,22,2.24,RU,2024-08-08 18:46:36
381,sfizef,35.2346,-0.2444,23.72,72,100,1.64,DZ,2024-08-08 18:46:36
382,lodja,-3.4833,23.4333,20.66,79,89,0.69,CD,2024-08-08 18:46:37
383,altay,47.8667,88.1167,24.88,27,54,1.12,CN,2024-08-08 18:46:37
384,miri,4.4148,114.0089,29.08,74,20,2.57,MY,2024-08-08 18:46:38
385,santiago juxtlahuaca,17.3333,-98.0167,16.36,92,100,0.58,MX,2024-08-08 18:46:38
386,keren,15.7778,38.4581,21.0,85,86,0.64,ER,2024-08-08 18:46:38
387,belmonte,-15.8631,-38.8828,21.5,77,0,2.06,BR,2024-08-08 18:46:39
388,angra do heroismo,38.65,-27.2167,23.34,88,0,1.79,PT,2024-08-08 18:46:39
389,luderitz,-26.6481,15.1594,12.94,71,0,2.69,NA,2024-08-08 18:46:39
390,ancud,-41.8697,-73.8203,7.78,86,100,2.63,CL,2024-08-08 18:46:40
391,plettenberg bay,-34.0527,23.3716,16.6,53,62,7.12,ZA,2024-08-08 18:46:40
392,burang,30.25,81.1667,11.06,74,100,0.99,CN,2024-08-08 18:46:40
393,kokpekty,48.75,82.4,25.55,38,100,3.16,KZ,2024-08-08 18:46:40
394,ntoum,0.3833,9.7833,24.87,80,100,0.9,GA,2024-08-08 18:46:41
395,awjilah,29.1081,21.2869,28.04,43,0,3.18,LY,2024-08-08 18:46:41
396,saint-francois,46.4154,3.9054,14.25,95,0,1.03,FR,2024-08-08 18:46:41
397,pitimbu,-7.4706,-34.8086,23.33,80,2,4.74,BR,2024-08-08 18:46:41
398,hithadhoo,-0.6,73.0833,28.05,72,100,3.74,MV,2024-08-08 18:46:42
399,castelfranco di sotto,43.7015,10.7455,25.02,83,0,0.32,IT,2024-08-08 18:46:42
400,molchanovo,57.5817,83.7692,12.98,97,100,2.59,RU,2024-08-08 18:46:42
401,piti village,13.4626,144.6933,31.49,74,20,3.6,GU,2024-08-08 18:46:42
402,mogok,22.9167,96.5,19.09,90,88,1.83,MM,2024-08-08 18:46:43
403,fuente obejuna,38.2667,-5.4167,24.84,52,0,0.73,ES,2024-08-08 18:46:43
404,pontes e lacerda,-15.2261,-59.3353,19.24,73,100,2.16,BR,2024-08-08 18:46:43
405,taroa,8.7058,171.2275,28.44,73,8,4.62,MH,2024-08-08 18:46:43
406,margate,51.3813,1.3862,19.39,83,100,0.89,GB,2024-08-08 18:46:44
407,carutapera,-1.195,-46.02,26.07,80,11,3.93,BR,2024-08-08 18:46:44
408,nova sintra,14.8667,-24.7167,26.1,80,8,2.94,CV,2024-08-08 18:46:44
409,itupiranga,-5.1347,-49.3267,26.18,45,11,1.17,BR,2024-08-08 18:46:44
410,xiva,41.3783,60.3639,23.99,41,10,6.32,UZ,2024-08-08 18:46:45
411,napili-honokowai,20.9708,-156.6705,29.61,78,14,5.92,US,2024-08-08 18:46:45
412,codrington,-38.2667,141.9667,14.24,69,100,4.84,AU,2024-08-08 18:46:45
413,sur,22.5667,59.5289,27.15,75,90,4.48,OM,2024-08-08 18:46:46
414,sorong,-0.8833,131.25,28.57,73,93,5.47,ID,2024-08-08 18:46:46
415,chistopol',55.3631,50.6424,15.13,93,100,3.53,RU,2024-08-08 18:46:46
416,al khums,32.6486,14.2619,24.97,86,0,1.63,LY,2024-08-08 18:46:46
417,ulsteinvik,62.3432,5.8487,16.28,74,100,1.34,NO,2024-08-08 18:46:47
418,laojunmiao,39.8333,97.7333,16.6,49,86,9.77,CN,2024-08-08 18:46:47
419,thisted,56.9552,8.6949,16.22,92,100,7.64,DK,2024-08-08 18:46:47
420,nyurba,63.2842,118.3319,24.65,37,4,0.84,RU,2024-08-08 18:46:47
421,siruguppa,15.6333,76.9,24.82,82,67,4.23,IN,2024-08-08 18:46:48
422,sola,-13.8833,167.55,25.18,70,83,9.86,VU,2024-08-08 18:46:48
423,soderhamn,61.3037,17.0592,11.64,92,100,2.0,SE,2024-08-08 18:46:48
424,inhambane,-23.865,35.3833,19.37,92,1,4.01,MZ,2024-08-08 18:46:48
425,lincoln city,44.9582,-124.0179,19.27,91,54,5.36,US,2024-08-08 18:46:49
426,cabedelo,-6.9811,-34.8339,23.37,84,8,5.38,BR,2024-08-08 18:46:49
427,muynoq,43.7683,59.0214,26.56,51,0,4.62,UZ,2024-08-08 18:46:49
428,enewetak,11.3474,162.3373,29.14,73,31,6.47,MH,2024-08-08 18:46:49
429,nemuro,43.3236,145.575,20.0,93,94,4.23,JP,2024-08-08 18:46:49
430,chulakkurgan,43.765,69.1814,32.52,18,35,3.02,KZ,2024-08-08 18:46:50
431,al jaradiyah,16.5795,42.9124,29.72,72,30,0.45,SA,2024-08-08 18:46:50
432,sihanoukville,10.6093,103.5296,28.97,89,40,1.03,KH,2024-08-08 18:46:50
433,baharly,38.4362,57.4316,30.53,48,84,1.44,TM,2024-08-08 18:46:51
434,kununurra,-15.7667,128.7333,28.99,20,14,7.2,AU,2024-08-08 18:46:51
435,san andres,12.5847,-81.7006,28.01,89,20,2.06,CO,2024-08-08 18:46:51
436,yaren,-0.5472,166.916,28.3,69,100,2.93,NR,2024-08-08 18:46:51
437,piacabucu,-10.4056,-36.4344,23.57,76,100,2.58,BR,2024-08-08 18:46:52
438,dukhan,25.4297,50.7858,31.08,65,28,1.52,QA,2024-08-08 18:46:52
439,remire-montjoly,4.9167,-52.2667,26.02,94,20,1.03,GF,2024-08-08 18:46:52
440,xai-xai,-25.0519,33.6442,19.89,74,0,5.81,MZ,2024-08-08 18:46:52
441,saldanha,-33.0117,17.9442,14.03,76,62,9.29,ZA,2024-08-08 18:46:53
442,soto la marina,23.7667,-98.2167,28.04,81,12,5.33,MX,2024-08-08 18:46:53
443,kotlas,61.2611,46.6556,13.36,96,100,1.75,RU,2024-08-08 18:46:53
444,sao joao da barra,-21.6403,-41.0511,22.98,84,0,7.26,BR,2024-08-08 18:46:53
445,keelung,25.1283,121.7419,32.97,66,38,2.78,TW,2024-08-08 18:46:54
446,nadi,-17.8,177.4167,28.0,47,40,5.66,FJ,2024-08-08 18:46:54
447,howard springs,-12.497,131.047,28.95,37,1,3.93,AU,2024-08-08 18:46:54
448,yorkton,51.2167,-102.4677,15.91,59,100,2.06,CA,2024-08-08 18:45:01
449,el bauga,18.262,33.9081,30.08,56,23,3.15,SD,2024-08-08 18:46:54
450,rania,29.5333,74.8333,28.33,82,0,4.44,IN,2024-08-08 18:46:55
451,pamanukan,-6.2842,107.8106,29.94,56,65,3.63,ID,2024-08-08 18:46:55
452,guymon,36.6828,-101.4816,23.0,73,100,3.09,US,2024-08-08 18:46:56
453,sadovoye,47.7764,44.5089,22.25,48,48,4.01,RU,2024-08-08 18:46:56
454,mocimboa,-11.3167,40.35,20.24,91,97,1.9,MZ,2024-08-08 18:46:56
455,outokumpu,62.7269,29.0159,10.94,81,6,0.73,FI,2024-08-08 18:46:56
456,mersing,2.4312,103.8405,26.95,94,20,0.51,MY,2024-08-08 18:46:57
457,jaithari,23.2333,78.6167,23.28,97,100,2.28,IN,2024-08-08 18:46:57
458,kanoya,31.3833,130.85,31.55,60,49,1.37,JP,2024-08-08 18:46:57
459,port alfred,-33.5906,26.891,17.79,44,0,9.03,ZA,2024-08-08 18:46:57
460,santa rosa misiones,-26.8667,-56.85,7.41,77,0,1.22,PY,2024-08-08 18:46:58
461,phalaborwa,-23.943,31.1411,20.6,46,0,2.23,ZA,2024-08-08 18:46:58
462,port-vila,-17.7338,168.3219,25.78,65,75,7.2,VU,2024-08-08 18:46:58
463,enoch,37.7733,-113.0244,20.14,75,20,1.54,US,2024-08-08 18:46:59
464,panaba,21.2833,-88.2667,25.69,83,21,3.16,MX,2024-08-08 18:46:59
465,matao,-21.6033,-48.3658,22.44,40,95,1.73,BR,2024-08-08 18:46:59
466,shohimardon,39.9839,71.8028,20.43,33,0,0.9,UZ,2024-08-08 18:46:59
467,westport,41.1415,-73.3579,20.81,94,100,7.2,US,2024-08-08 18:47:00
468,ormara,25.2088,64.6357,28.65,82,100,2.84,PK,2024-08-08 18:47:00
469,bani walid,31.7566,13.9942,24.45,86,0,2.31,LY,2024-08-08 18:47:00
470,kibre mengist,5.8833,38.9833,15.79,96,100,0.96,ET,2024-08-08 18:47:00
471,salym,60.0625,71.4789,10.86,79,100,2.77,RU,2024-08-08 18:47:01
472,juneau,58.3019,-134.4197,26.0,100,20,3.09,US,2024-08-08 18:47:01
473,vila do maio,15.1333,-23.2167,26.44,80,85,2.79,CV,2024-08-08 18:47:01
474,trapani,37.8333,12.6667,22.97,94,0,1.54,IT,2024-08-08 18:47:01
475,tome acu,-2.4189,-48.1522,25.85,69,97,1.57,BR,2024-08-08 18:47:02
476,swakopmund,-22.6833,14.5333,11.67,69,0,3.34,NA,2024-08-08 18:47:02
477,el calafate,-50.3408,-72.2768,3.7,82,6,3.64,AR,2024-08-08 18:47:02
478,rio grande,-32.035,-52.0986,9.41,71,73,6.53,BR,2024-08-08 18:47:02
479,mandiana,10.6333,-8.6833,22.94,93,100,0.83,GN,2024-08-08 18:47:03
480,aykol,38.1751,77.2132,26.94,25,0,2.37,CN,2024-08-08 18:47:03
481,aykhal,66.0,111.5,10.55,85,99,5.23,RU,2024-08-08 18:47:03
482,nuriootpa,-34.4833,139.0,15.21,41,96,0.6,AU,2024-08-08 18:47:03
483,paramonga,-10.6667,-77.8333,16.91,83,75,3.34,PE,2024-08-08 18:47:04
484,howrah,22.5892,88.3103,29.0,89,75,4.12,IN,2024-08-08 18:47:04
485,watampone,-4.5386,120.3279,28.03,67,64,4.75,ID,2024-08-08 18:47:04
486,al burayqah,30.4062,19.5739,27.28,73,0,6.28,LY,2024-08-08 18:47:04
487,cannonvale,-20.2833,148.7,24.21,72,17,7.8,AU,2024-08-08 18:47:05
488,labrador city,52.9463,-66.9114,10.66,73,20,4.92,CA,2024-08-08 18:47:05
489,ituango,7.1712,-75.764,19.31,99,100,0.37,CO,2024-08-08 18:47:05
490,juan griego,11.0817,-63.9655,33.07,62,0,5.66,VE,2024-08-08 18:47:05
491,sambava,-14.2667,50.1667,20.41,80,78,4.77,MG,2024-08-08 18:47:06
492,cordele,31.9635,-83.7824,28.99,70,75,2.06,US,2024-08-08 18:47:06
493,maragogi,-9.0122,-35.2225,23.66,76,100,2.86,BR,2024-08-08 18:47:06
494,feijo,-8.1642,-70.3536,25.17,70,38,0.38,BR,2024-08-08 18:47:06
495,tenenkou,14.4572,-4.9169,24.42,86,99,3.5,ML,2024-08-08 18:47:07
496,caxito,-8.5785,13.6643,18.32,95,66,0.85,AO,2024-08-08 18:47:07
497,oban,56.4127,-5.4706,12.99,91,100,4.88,GB,2024-08-08 18:47:07
498,yanykurgan,43.915,67.2481,31.77,19,75,4.21,KZ,2024-08-08 18:47:07
499,kavaratti,10.5669,72.642,27.01,83,99,4.13,IN,2024-08-08 18:47:08
500,valenca do piaui,-6.4075,-41.7456,24.37,37,90,3.44,BR,2024-08-08 18:47:08
501,candon,17.1947,120.4517,30.01,71,100,4.76,PH,2024-08-08 18:47:08
502,kendari,-3.945,122.4989,28.8,57,10,1.62,ID,2024-08-08 18:47:08
503,oruro,-17.9833,-67.15,3.93,8,22,3.8,BO,2024-08-08 18:47:09
504,tazacorte,28.629,-17.9293,22.54,93,40,5.66,ES,2024-08-08 18:47:09
505,beau vallon,-20.4189,57.6953,19.56,68,10,6.28,MU,2024-08-08 18:47:09
506,mancio lima,-7.6142,-72.8958,25.57,55,0,1.07,BR,2024-08-08 18:47:09
507,amahai,-3.3333,128.9167,26.84,79,49,6.08,ID,2024-08-08 18:47:10
508,kone,-21.0595,164.8658,25.85,51,36,1.89,NC,2024-08-08 18:47:10
509,weissenburg in bayern,49.0309,10.9722,15.21,82,9,1.9,DE,2024-08-08 18:47:10
510,aberdeen,57.1437,-2.0981,14.27,100,72,2.06,GB,2024-08-08 18:47:10
511,taranagar,28.6709,75.0351,29.61,71,100,4.56,IN,2024-08-08 18:47:11
512,az zabadani,33.7249,36.1005,18.22,40,0,0.95,SY,2024-08-08 18:47:11
513,farmville,37.3021,-78.3919,25.32,100,100,3.09,US,2024-08-08 18:43:39
514,hatillo,18.4863,-66.8254,28.39,87,9,6.14,PR,2024-08-08 18:47:11
515,brokopondo,4.75,-55.1667,25.81,87,66,3.54,SR,2024-08-08 18:47:12
516,luang prabang,19.8856,102.1347,24.98,94,75,1.03,LA,2024-08-08 18:47:12
517,humahuaca,-23.2054,-65.3505,5.7,13,0,3.27,AR,2024-08-08 18:47:12
518,tongouson,5.0214,120.1328,26.55,80,100,0.96,PH,2024-08-08 18:47:12
519,vorotynets,56.0603,45.8633,14.33,98,100,2.43,RU,2024-08-08 18:47:13
520,puerto leguizamo,-0.1934,-74.7819,24.82,78,58,0.82,CO,2024-08-08 18:47:13
521,katsuura,35.1333,140.3,32.01,80,10,6.7,JP,2024-08-08 18:47:13
522,zhangzhou,24.5133,117.6556,32.96,72,75,0.46,CN,2024-08-08 18:47:13
523,pangkalan brandan,4.0238,98.2782,26.77,88,80,1.53,ID,2024-08-08 18:47:14
524,sao jose da coroa grande,-8.8978,-35.1478,24.08,75,99,3.34,BR,2024-08-08 18:47:14
525,malvan,16.0667,73.4667,26.32,84,96,1.39,IN,2024-08-08 18:47:14
526,whangarei,-35.7317,174.3239,13.39,75,82,2.68,NZ,2024-08-08 18:46:59
527,tadjourah,12.0,42.5,28.07,66,11,1.73,DJ,2024-08-08 18:47:14
528,gorontalo,0.5412,123.0595,29.42,63,100,4.1,ID,2024-08-08 18:47:15
529,santo antonio,-6.3106,-35.4789,20.64,96,18,3.63,BR,2024-08-08 18:47:15
530,ad dawadimi,24.5077,44.3924,26.64,10,66,3.28,SA,2024-08-08 18:47:16
531,lepsy,46.235,78.9456,30.7,19,27,3.03,KZ,2024-08-08 18:47:16
532,smithers,54.7804,-127.1743,30.18,21,40,1.03,CA,2024-08-08 18:47:16
533,esil,51.9556,66.4042,16.15,95,100,8.24,KZ,2024-08-08 18:47:16
534,guelendeng,10.9176,15.5501,23.55,88,100,2.09,TD,2024-08-08 18:47:17
535,caleta de carquin,-11.0925,-77.6267,17.01,83,33,3.62,PE,2024-08-08 18:47:17
536,cill airne,52.05,-9.5167,14.11,91,97,2.9,IE,2024-08-08 18:47:17
537,puerto baquerizo moreno,-0.9,-89.6,19.68,76,87,5.43,EC,2024-08-08 18:47:17
538,mar del plata,-38.0023,-57.5575,8.94,82,75,7.15,AR,2024-08-08 18:47:18
539,yeppoon,-23.1333,150.7333,25.7,74,4,5.99,AU,2024-08-08 18:47:18
540,cole harbour,44.6724,-63.4751,18.66,82,73,1.54,CA,2024-08-08 18:47:18
541,onega,63.9061,38.1404,13.55,67,62,2.06,RU,2024-08-08 18:47:18
542,san antonio,29.4241,-98.4936,34.39,48,0,4.63,US,2024-08-08 18:47:09
543,raja,8.4596,25.678,20.11,97,97,0.81,SS,2024-08-08 18:47:19
544,freystadt,49.2006,11.3294,14.97,93,36,1.35,DE,2024-08-08 18:47:19
545,dunedin,-45.8742,170.5036,9.19,67,2,3.26,NZ,2024-08-08 18:47:20
546,tavira,37.1273,-7.6486,22.37,68,0,2.57,PT,2024-08-08 18:47:20
547,hadibu,12.65,54.0333,24.93,81,49,7.49,YE,2024-08-08 18:47:20
548,kuanda,56.3161,116.0806,21.9,56,100,1.02,RU,2024-08-08 18:47:21
549,mermoz boabab,14.7065,-17.4758,27.88,83,75,3.09,SN,2024-08-08 18:47:21
550,nelson bay,-32.7167,152.15,19.44,64,100,0.89,AU,2024-08-08 18:47:21
551,conde,-7.2597,-34.9075,22.7,100,40,1.54,BR,2024-08-08 18:47:22
552,dongsheng,39.8161,109.9776,19.69,75,100,9.49,CN,2024-08-08 18:47:22
553,larache,35.1932,-6.1557,21.52,90,0,0.85,MA,2024-08-08 18:47:22
554,cova figueira,14.8905,-24.2934,20.27,84,23,2.75,CV,2024-08-08 18:47:22
555,huarmey,-10.0681,-78.1522,17.02,84,96,4.02,PE,2024-08-08 18:47:23
556,sandnessjoen,66.0217,12.6316,12.29,89,100,3.13,NO,2024-08-08 18:47:23
557,beinamar,8.6698,15.3813,21.95,90,100,1.82,TD,2024-08-08 18:47:23
558,bardai,11.65,7.2333,21.2,92,100,4.22,NG,2024-08-08 18:47:24
559,deleni,47.4667,26.8833,20.97,62,3,0.43,RO,2024-08-08 18:47:24
560,belokurikha,51.9959,84.9896,20.53,85,97,1.73,RU,2024-08-08 18:47:24
561,lubu,23.1742,112.2809,33.34,61,9,1.59,CN,2024-08-08 18:47:24
562,narasapur,16.45,81.6667,27.41,80,100,2.95,IN,2024-08-08 18:47:25
563,mahur,25.1667,93.1167,23.25,86,86,1.05,IN,2024-08-08 18:47:25
564,jwaneng,-24.6004,24.7303,13.8,24,0,3.1,BW,2024-08-08 18:47:25
565,slave lake,55.2834,-114.769,21.99,46,0,6.17,CA,2024-08-08 18:47:25
566,tandil,-37.3217,-59.1332,3.71,89,13,4.72,AR,2024-08-08 18:47:26
567,el haouaria,37.05,11.0144,25.01,73,0,2.09,TN,2024-08-08 18:47:26
568,prainha,-1.8,-53.48,26.67,56,5,1.4,BR,2024-08-08 18:47:26
569,oak hill,37.9723,-81.1487,22.17,92,100,1.76,US,2024-08-08 18:47:26
570,guichon,-32.35,-57.2,5.39,96,100,5.48,UY,2024-08-08 18:47:27
571,hohhot,40.8106,111.6522,20.16,94,75,4.0,CN,2024-08-08 18:47:27
572,turuntayevo,52.2,107.6167,20.05,46,21,0.25,RU,2024-08-08 18:47:27
573,tutong,4.8,114.65,29.05,70,63,0.91,BN,2024-08-08 18:47:28
574,andorra,42.5,1.5,22.1,66,0,1.46,AD,2024-08-08 18:47:28
575,chilaw,7.5758,79.7953,26.01,77,87,6.73,LK,2024-08-08 18:47:28
576,ljusdal,61.8288,16.0913,11.49,96,100,1.47,SE,2024-08-08 18:47:28
577,orange,33.7,-117.7675,30.31,64,20,3.09,US,2024-08-08 18:43:47
578,ascencion de guarayos,-15.8963,-63.1881,14.25,58,64,4.27,BO,2024-08-08 18:47:29
579,singrauli,24.1997,82.6753,24.45,92,100,2.91,IN,2024-08-08 18:47:29
580,pathein,16.7833,94.7333,28.21,79,82,2.21,MM,2024-08-08 18:47:29
581,vernal,40.4555,-109.5287,30.84,24,0,0.0,US,2024-08-08 18:46:12
582,badarwas,24.9667,77.5667,24.84,89,100,3.23,IN,2024-08-08 18:47:30
583,al bardiyah,31.7561,25.0865,25.74,73,0,3.73,LY,2024-08-08 18:47:30
